{
 "Tokyo": {
  "lat": 35.68972,
  "lng": 139.69222,
  "title": "Tokyo"
 },
 "Kyoto": {
  "lat": 35.01161,
  "lng": 135.76811,
  "title": "Kyoto"
 },
 "Osaka": {
  "lat": 34.69389,
  "lng": 135.50222,
  "title": "Osaka"
 },
 "Mount_Fuji": {
  "lat": 35.36083,
  "lng": 138.7275,
  "title": "Mount Fuji"
 },
 "Hiroshima": {
  "lat": 34.39139,
  "lng": 132.45194,
  "title": "Hiroshima"
 },
 "Nara,_Nara": {
  "lat": 34.68444,
  "lng": 135.805,
  "title": "Nara (city)"
 },
 "Beijing": {
  "lat": 39.90667,
  "lng": 116.3975,
  "title": "Beijing"
 },
 "Shanghai": {
  "lat": 31.2325,
  "lng": 121.46917,
  "title": "Shanghai"
 },
 "Badaling": {
  "lat": 40.35417,
  "lng": 116.00694,
  "title": "Badaling"
 },
 "Xi'an": {
  "lat": 34.26111,
  "lng": 108.94222,
  "title": "Xi'an"
 },
 "Guilin": {
  "lat": 25.275,
  "lng": 110.296,
  "title": "Guilin"
 },
 "Hong_Kong": {
  "lat": 22.3,
  "lng": 114.2,
  "title": "Hong Kong"
 },
 "Delhi": {
  "lat": 28.61,
  "lng": 77.23,
  "title": "Delhi"
 },
 "Taj_Mahal": {
  "lat": 27.175,
  "lng": 78.0419,
  "title": "Taj Mahal"
 },
 "Jaipur": {
  "lat": 26.915,
  "lng": 75.82,
  "title": "Jaipur"
 },
 "Mumbai": {
  "lat": 19.07611,
  "lng": 72.8775,
  "title": "Mumbai"
 },
 "Varanasi": {
  "lat": 25.31889,
  "lng": 83.01278,
  "title": "Varanasi"
 },
 "Kerala_backwaters": {
  "lat": 9.86348,
  "lng": 76.3594,
  "title": "Kerala backwaters"
 },
 "Seoul": {
  "lat": 37.56,
  "lng": 126.99,
  "title": "Seoul"
 },
 "Busan": {
  "lat": 35.18,
  "lng": 129.075,
  "title": "Busan"
 },
 "Gyeongju": {
  "lat": 35.85,
  "lng": 129.21667,
  "title": "Gyeongju"
 },
 "Jeju_Island": {
  "lat": 33.38,
  "lng": 126.53,
  "title": "Jeju Island"
 },
 "Bangkok": {
  "lat": 13.7525,
  "lng": 100.49417,
  "title": "Bangkok"
 },
 "Chiang_Mai": {
  "lat": 18.79528,
  "lng": 98.99861,
  "title": "Chiang Mai"
 },
 "Phuket_Province": {
  "lat": 7.89,
  "lng": 98.39833,
  "title": "Phuket province"
 },
 "Ayutthaya_(city)": {
  "lat": 14.34778,
  "lng": 100.56056,
  "title": "Phra Nakhon Si Ayutthaya (city)"
 },
 "Kuala_Lumpur": {
  "lat": 3.14778,
  "lng": 101.69528,
  "title": "Kuala Lumpur"
 },
 "George_Town,_Penang": {
  "lat": 5.46543,
  "lng": 100.284,
  "title": "George Town, Penang"
 },
 "Malacca_City": {
  "lat": 2.19444,
  "lng": 102.24861,
  "title": "Malacca City"
 },
 "Kota_Kinabalu": {
  "lat": 5.975,
  "lng": 116.0725,
  "title": "Kota Kinabalu"
 },
 "Singapore": {
  "lat": 1.28333,
  "lng": 103.83333,
  "title": "Singapore"
 },
 "Gardens_by_the_Bay": {
  "lat": 1.28472,
  "lng": 103.865,
  "title": "Gardens by the Bay"
 },
 "Sentosa": {
  "lat": 1.248,
  "lng": 103.83,
  "title": "Sentosa"
 },
 "Manila": {
  "lat": 14.5958,
  "lng": 120.9772,
  "title": "Manila"
 },
 "Cebu_City": {
  "lat": 10.293,
  "lng": 123.902,
  "title": "Cebu City"
 },
 "El_Nido,_Palawan": {
  "lat": 11.18,
  "lng": 119.39,
  "title": "El Nido, Palawan"
 },
 "Banaue_Rice_Terraces": {
  "lat": 16.9,
  "lng": 121.05,
  "title": "Banaue Rice Terraces"
 },
 "Hanoi": {
  "lat": 21,
  "lng": 105.85,
  "title": "Hanoi"
 },
 "Ho_Chi_Minh_City": {
  "lat": 10.77556,
  "lng": 106.70194,
  "title": "Ho Chi Minh City"
 },
 "Hạ_Long_Bay": {
  "lat": 20.9,
  "lng": 107.2,
  "title": "Hạ Long Bay"
 },
 "Hội_An": {
  "error": "no-coordinates",
  "title": "Hội An"
 },
 "Angkor_Wat": {
  "lat": 13.4125,
  "lng": 103.86667,
  "title": "Angkor Wat"
 },
 "Phnom_Penh": {
  "lat": 11.56944,
  "lng": 104.92111,
  "title": "Phnom Penh"
 },
 "Siem_Reap": {
  "lat": 13.36222,
  "lng": 103.85972,
  "title": "Siem Reap"
 },
 "Luang_Prabang": {
  "lat": 19.89,
  "lng": 102.13472,
  "title": "Luang Prabang"
 },
 "Vientiane": {
  "lat": 17.98,
  "lng": 102.63,
  "title": "Vientiane"
 },
 "Taipei": {
  "lat": 25.0375,
  "lng": 121.5625,
  "title": "Taipei"
 },
 "Taroko_National_Park": {
  "lat": 24.16667,
  "lng": 121.33333,
  "title": "Taroko National Park"
 },
 "Tainan": {
  "lat": 22.99,
  "lng": 120.185,
  "title": "Tainan"
 },
 "Ulaanbaatar": {
  "lat": 47.92194,
  "lng": 106.91528,
  "title": "Ulaanbaatar"
 },
 "Gobi_Desert": {
  "lat": 42.59,
  "lng": 103.43,
  "title": "Gobi Desert"
 },
 "Colombo": {
  "lat": 6.93444,
  "lng": 79.84278,
  "title": "Colombo"
 },
 "Kandy": {
  "lat": 7.2931,
  "lng": 80.635,
  "title": "Kandy"
 },
 "Sigiriya": {
  "lat": 7.95694,
  "lng": 80.75972,
  "title": "Sigiriya"
 },
 "Jerusalem": {
  "lat": 31.77889,
  "lng": 35.22556,
  "title": "Jerusalem"
 },
 "Tel_Aviv": {
  "lat": 32.08,
  "lng": 34.78,
  "title": "Tel Aviv"
 },
 "Masada": {
  "lat": 31.31556,
  "lng": 35.35389,
  "title": "Masada"
 },
 "Dubai": {
  "lat": 25.20472,
  "lng": 55.27083,
  "title": "Dubai"
 },
 "Abu_Dhabi": {
  "lat": 24.46667,
  "lng": 54.36667,
  "title": "Abu Dhabi"
 },
 "Riyadh": {
  "lat": 24.63333,
  "lng": 46.71667,
  "title": "Riyadh"
 },
 "Jeddah": {
  "lat": 21.54333,
  "lng": 39.17278,
  "title": "Jeddah"
 },
 "Mada'in_Salih": {
  "lat": 26.79167,
  "lng": 37.95278,
  "title": "Hegra"
 },
 "Doha": {
  "lat": 25.28667,
  "lng": 51.53333,
  "title": "Doha"
 },
 "Petra": {
  "lat": 30.32861,
  "lng": 35.44194,
  "title": "Petra"
 },
 "Amman": {
  "lat": 31.94972,
  "lng": 35.93278,
  "title": "Amman"
 },
 "Wadi_Rum": {
  "lat": 29.59306,
  "lng": 35.42,
  "title": "Wadi Rum"
 },
 "Tehran": {
  "lat": 35.6889,
  "lng": 51.3897,
  "title": "Tehran"
 },
 "Isfahan": {
  "lat": 32.66528,
  "lng": 51.67028,
  "title": "Isfahan"
 },
 "Persepolis": {
  "lat": 29.935,
  "lng": 52.89,
  "title": "Persepolis"
 },
 "Shiraz": {
  "lat": 29.61,
  "lng": 52.5425,
  "title": "Shiraz"
 },
 "Yerevan": {
  "lat": 40.17778,
  "lng": 44.51278,
  "title": "Yerevan"
 },
 "Lake_Sevan": {
  "lat": 40.31667,
  "lng": 45.35,
  "title": "Lake Sevan"
 },
 "Tatev_Monastery": {
  "lat": 39.37937,
  "lng": 46.25003,
  "title": "Tatev Monastery"
 },
 "Baku": {
  "lat": 40.37556,
  "lng": 49.8325,
  "title": "Baku"
 },
 "Tbilisi": {
  "lat": 41.7225,
  "lng": 44.7925,
  "title": "Tbilisi"
 },
 "Gergeti_Trinity_Church": {
  "lat": 42.6625,
  "lng": 44.62028,
  "title": "Gergeti Trinity Church"
 },
 "Marrakesh": {
  "lat": 31.63,
  "lng": -8.00889,
  "title": "Marrakesh"
 },
 "Fez,_Morocco": {
  "lat": 34.04333,
  "lng": -5.00333,
  "title": "Fez, Morocco"
 },
 "Chefchaouen": {
  "lat": 35.17139,
  "lng": -5.26972,
  "title": "Chefchaouen"
 },
 "Merzouga": {
  "lat": 31.09917,
  "lng": -4.01167,
  "title": "Merzouga"
 },
 "Casablanca": {
  "lat": 33.53333,
  "lng": -7.58333,
  "title": "Casablanca"
 },
 "Giza_pyramid_complex": {
  "lat": 29.97611,
  "lng": 31.13278,
  "title": "Giza pyramid complex"
 },
 "Cairo": {
  "lat": 30.04444,
  "lng": 31.23583,
  "title": "Cairo"
 },
 "Luxor": {
  "lat": 25.69667,
  "lng": 32.64444,
  "title": "Luxor"
 },
 "Aswan": {
  "lat": 24.08889,
  "lng": 32.89972,
  "title": "Aswan"
 },
 "Nairobi": {
  "lat": -1.28639,
  "lng": 36.81722,
  "title": "Nairobi"
 },
 "Maasai_Mara": {
  "lat": -1.49,
  "lng": 35.14,
  "title": "Maasai Mara"
 },
 "Mombasa": {
  "lat": -4.05,
  "lng": 39.66667,
  "title": "Mombasa"
 },
 "Dakar": {
  "lat": 14.69278,
  "lng": -17.44667,
  "title": "Dakar"
 },
 "Gorée": {
  "lat": 14.66694,
  "lng": -17.39833,
  "title": "Gorée"
 },
 "Addis_Ababa": {
  "lat": 9.03583,
  "lng": 38.7525,
  "title": "Addis Ababa"
 },
 "Lalibela": {
  "lat": 12.03167,
  "lng": 39.04111,
  "title": "Lalibela"
 },
 "Gondar": {
  "lat": 12.6075,
  "lng": 37.45917,
  "title": "Gondar"
 },
 "Banjul": {
  "lat": 13.45417,
  "lng": -16.57528,
  "title": "Banjul"
 },
 "Cape_Town": {
  "lat": -33.92528,
  "lng": 18.42389,
  "title": "Cape Town"
 },
 "Table_Mountain": {
  "lat": -33.96218,
  "lng": 18.40988,
  "title": "Table Mountain"
 },
 "Johannesburg": {
  "lat": -26.20444,
  "lng": 28.04556,
  "title": "Johannesburg"
 },
 "Kruger_National_Park": {
  "lat": -24,
  "lng": 31.5,
  "title": "Kruger National Park"
 },
 "Sydney": {
  "lat": -33.86778,
  "lng": 151.21,
  "title": "Sydney"
 },
 "Melbourne": {
  "lat": -37.81417,
  "lng": 144.96306,
  "title": "Melbourne"
 },
 "Uluru": {
  "lat": -25.345,
  "lng": 131.03611,
  "title": "Uluru"
 },
 "Great_Barrier_Reef": {
  "lat": -16.4,
  "lng": 145.8,
  "title": "Great Barrier Reef"
 },
 "Cairns": {
  "lat": -16.92,
  "lng": 145.78,
  "title": "Cairns"
 },
 "Perth": {
  "lat": -32,
  "lng": 115.9,
  "title": "Perth"
 },
 "Auckland": {
  "lat": -36.8492,
  "lng": 174.7653,
  "title": "Auckland"
 },
 "Queenstown,_New_Zealand": {
  "lat": -45.03111,
  "lng": 168.6625,
  "title": "Queenstown, New Zealand"
 },
 "Wellington": {
  "lat": -41.28889,
  "lng": 174.77722,
  "title": "Wellington"
 },
 "Rotorua": {
  "lat": -38.13778,
  "lng": 176.25139,
  "title": "Rotorua"
 },
 "Milford_Sound": {
  "lat": -44.64806,
  "lng": 167.90556,
  "title": "Milford Sound"
 },
 "Buenos_Aires": {
  "lat": -34.60389,
  "lng": -58.38139,
  "title": "Buenos Aires"
 },
 "Iguazu_Falls": {
  "lat": -25.68667,
  "lng": -54.44472,
  "title": "Iguazu Falls"
 },
 "San_Carlos_de_Bariloche": {
  "lat": -41.15,
  "lng": -71.3,
  "title": "Bariloche"
 },
 "Mendoza,_Argentina": {
  "lat": -32.88972,
  "lng": -68.84444,
  "title": "Mendoza, Argentina"
 },
 "Ushuaia": {
  "lat": -54.80722,
  "lng": -68.30806,
  "title": "Ushuaia"
 },
 "La_Paz": {
  "lat": -16.49583,
  "lng": -68.13333,
  "title": "La Paz"
 },
 "Salar_de_Uyuni": {
  "lat": -20.13377,
  "lng": -67.48913,
  "title": "Salar de Uyuni"
 },
 "Sucre": {
  "lat": -19.0475,
  "lng": -65.26,
  "title": "Sucre"
 },
 "Bogotá": {
  "lat": 4.71111,
  "lng": -74.07222,
  "title": "Bogotá"
 },
 "Cartagena,_Colombia": {
  "lat": 10.4,
  "lng": -75.5,
  "title": "Cartagena, Colombia"
 },
 "Medellín": {
  "lat": 6.23083,
  "lng": -75.59056,
  "title": "Medellín"
 },
 "Montevideo": {
  "lat": -34.90556,
  "lng": -56.18417,
  "title": "Montevideo"
 },
 "Punta_del_Este": {
  "lat": -34.96667,
  "lng": -54.95,
  "title": "Punta del Este"
 },
 "Colonia_del_Sacramento": {
  "lat": -34.47139,
  "lng": -57.84417,
  "title": "Colonia del Sacramento"
 },
 "Asunción": {
  "lat": -25.28,
  "lng": -57.63444,
  "title": "Asunción"
 },
 "Havana": {
  "lat": 23.13667,
  "lng": -82.35889,
  "title": "Havana"
 },
 "Trinidad,_Cuba": {
  "lat": 21.80417,
  "lng": -79.98306,
  "title": "Trinidad, Cuba"
 },
 "Varadero": {
  "lat": 23.13944,
  "lng": -81.28611,
  "title": "Varadero"
 },
 "San_José,_Costa_Rica": {
  "lat": 9.9325,
  "lng": -84.08,
  "title": "San José, Costa Rica"
 },
 "Arenal_Volcano": {
  "lat": 10.4625,
  "lng": -84.70333,
  "title": "Arenal Volcano"
 },
 "Monteverde": {
  "lat": 10.29083,
  "lng": -84.82528,
  "title": "Monteverde"
 },
 "Manuel_Antonio_National_Park": {
  "lat": 9.37556,
  "lng": -84.13583,
  "title": "Manuel Antonio National Park"
 },
 "Belize_City": {
  "lat": 17.49861,
  "lng": -88.18861,
  "title": "Belize City"
 },
 "Caracol": {
  "lat": 16.76389,
  "lng": -89.1175,
  "title": "Caracol"
 },
 "Ambergris_Caye": {
  "lat": 18.01395,
  "lng": -87.93104,
  "title": "Ambergris Caye"
 },
 "Kyiv": {
  "lat": 50.45,
  "lng": 30.52333,
  "title": "Kyiv"
 },
 "Lviv": {
  "lat": 49.8425,
  "lng": 24.03222,
  "title": "Lviv"
 },
 "Odesa": {
  "lat": 46.46667,
  "lng": 30.73333,
  "title": "Odesa"
 },
 "Belgrade": {
  "lat": 44.81778,
  "lng": 20.45694,
  "title": "Belgrade"
 },
 "Novi_Sad": {
  "lat": 45.25417,
  "lng": 19.8425,
  "title": "Novi Sad"
 },
 "Luxembourg_City": {
  "lat": 49.61167,
  "lng": 6.13194,
  "title": "Luxembourg City"
 },
 "Vilnius": {
  "lat": 54.68722,
  "lng": 25.28,
  "title": "Vilnius"
 },
 "Trakai_Island_Castle": {
  "lat": 54.6525,
  "lng": 24.93306,
  "title": "Trakai Island Castle"
 },
 "Riga": {
  "lat": 56.94889,
  "lng": 24.10639,
  "title": "Riga"
 },
 "Chișinău": {
  "lat": 47.02278,
  "lng": 28.83528,
  "title": "Chișinău"
 },
 "Bratislava": {
  "lat": 48.14389,
  "lng": 17.10972,
  "title": "Bratislava"
 },
 "Tatra_Mountains": {
  "lat": 49.2006,
  "lng": 19.9739,
  "title": "Tatra Mountains"
 },
 "Ljubljana": {
  "lat": 46.05139,
  "lng": 14.50611,
  "title": "Ljubljana"
 },
 "Lake_Bled": {
  "lat": 46.36444,
  "lng": 14.09472,
  "title": "Lake Bled"
 },
 "Piran": {
  "lat": 45.52833,
  "lng": 13.56833,
  "title": "Piran"
 },
 "Vatican_City": {
  "lat": 41.9025,
  "lng": 12.4525,
  "title": "Vatican City"
 },
 "Moscow": {
  "lat": 55.75583,
  "lng": 37.61778,
  "title": "Moscow"
 },
 "Saint_Petersburg": {
  "lat": 59.9375,
  "lng": 30.30861,
  "title": "Saint Petersburg"
 },
 "Kazan": {
  "lat": 55.79639,
  "lng": 49.10889,
  "title": "Kazan"
 },
 "Lake_Baikal": {
  "lat": 53.5,
  "lng": 108,
  "title": "Lake Baikal"
 },
 "Hội_An_Ancient_Town": {
  "lat": 15.88333,
  "lng": 108.33333,
  "title": "Hội An Old Town"
 }
}